[{"oid":"6373fd4762a8c531b4acb309","formatted_address":"C. Alcaudón, 1, 28019 Madrid","lat":40.396948,"lng":-3.7316482,"name":"Fast & Good - Americana","photo_url":"https://www.google.com/url?sa=i&url=https%3A%2F%2Ffastgoodmadrid.com%2F&psig=AOvVaw3lHbg6xhYzBAraB2jvpLzg&ust=1680351573781000&source=images&cd=vfe&ved=0CBAQjRxqFwoTCOCc-MaThv4CFQAAAAAdAAAAABAE","place_id":"ChIJ32fpdu4nQg0R4CbaylF-pCM","price_level":1,"rating":3.8,"types":null,"user_ratings_total":112},{"oid":"6373fd4962a8c531b4acd316","formatted_address":"C. de Martín de los Heros, 34, 28008 Madrid","lat":40.4261703,"lng":-3.71499,"name":"Tierra Burrito Bar","photo_url":"https://www.google.com/url?sa=i&url=https%3A%2F%2Fwww.yosilose.com%2Frecomendaciones%2Fq%2Ftierra-burrito-bar%2F&psig=AOvVaw1Sm6ao4TLoI5_CC7zbqBr0&ust=1680351605554000&source=images&cd=vfe&ved=0CBAQjRxqFwoTCMjVjtaThv4CFQAAAAAdAAAAABAE","place_id":"ChIJ717mCuYpQg0RrSGah_aGM5Q","price_level":1,"rating":4.4,"types":null,"user_ratings_total":1002},{"oid":"6373fd4862a8c531b4acc294","formatted_address":"Pl. del Ángel, 1, 28012 Madrid","lat":40.4145651,"lng":-3.7029592,"name":"Restaurante Chino Plaza Del Angel","photo_url":"https://www.google.com/url?sa=i&url=https%3A%2F%2Fwww.tripadvisor.es%2FRestaurant_Review-g187514-d13321320-Reviews-Restaurante_Plaza_del_Angel-Madrid.html&psig=AOvVaw2ceft5yFu33ZR7flFPO8p5&ust=1680351636516000&source=images&cd=vfe&ved=0CBAQjRxqFwoTCMCW6eSThv4CFQAAAAAdAAAAABAJ","place_id":"ChIJD42a2H8oQg0RqfQk9T9pPCk","price_level":1,"rating":4.1,"types":null,"user_ratings_total":363},{"oid":"6373c2725e13662b6d2212c1","formatted_address":"Calle de Echegaray, 5, 28014 Madrid","lat":40.4160129,"lng":-3.6995733,"name":"Solo de Croquetas Echegaray","photo_url":"https://fiestaismadrid.es/wp-content/uploads/2021/12/Bar-Restaurante-Solo-Croquetas-Madrid-6-b.jpg","place_id":"ChIJM8jeeespQg0RPBIKiF2kKns","price_level":2,"rating":4.3,"types":null,"user_ratings_total":1900},{"oid":"6373fd4962a8c531b4acd051","formatted_address":"Calle del Dr. Castelo, 10, 28009 Madrid","lat":40.4203803,"lng":-3.6782459,"name":"Tenderete","photo_url":"https://media-cdn.tripadvisor.com/media/photo-s/10/cb/49/b0/te-ofrecemos-una-amplia.jpg","place_id":"ChIJ34glkaMoQg0RWci5ze2EhAA","price_level":2,"rating":3.5,"types":null,"user_ratings_total":668},{"oid":"6373fd4862a8c531b4acc2b5","formatted_address":"C. de Toledo, 170, 28005 Madrid","lat":40.4026157,"lng":-3.7138513,"name":"City Garden","photo_url":"https://media-cdn.tripadvisor.com/media/photo-s/09/cf/13/a0/amplio-local.jpg","place_id":"ChIJEQWYsdonQg0RoG_UTtSXwYU","price_level":1,"rating":4.2,"types":null,"user_ratings_total":401},{"oid":"6373fd4962a8c531b4accd87","formatted_address":"C. del Duque de Liria, 2, 28015 Madrid","lat":40.4259679,"lng":-3.7120277,"name":"Aladino","photo_url":"https://media-cdn.tripadvisor.com/media/photo-s/0f/5b/42/3f/aladino.jpg","place_id":"ChIJR8ezkGUoQg0RLDuOQWgo0EM","price_level":1,"rating":4.5,"types":null,"user_ratings_total":1021},{"oid":"6373c1cd5e13662b6d2212a3","formatted_address":"C. de Alcalá, 12, 28014 Madrid","lat":40.4171867,"lng":-3.7008587,"name":"Vibar","photo_url":"https://images.happycow.net/venues/1024/27/66/hcmp276612_1581543.jpeg","place_id":"ChIJdZUpV7YpQg0RJtk8ifZpkLM","price_level":0,"rating":4.1,"types":null,"user_ratings_total":32},{"oid":"6373fd4762a8c531b4acb0b0","formatted_address":"C. de Bravo Murillo, 227, 28020 Madrid","lat":40.4570904,"lng":-3.7019443,"name":"Kebap Rania","photo_url":"https://10619-2.s.cdn12.com/rests/original/103_510784071.jpg","place_id":"ChIJn3IAlAApQg0RGJdPoz4QFbk","price_level":1,"rating":3.9,"types":null,"user_ratings_total":102},{"oid":"6373fd4b62a8c531b4acebd1","formatted_address":"P.º del Gral. Martínez Campos, 41, 28010 Madrid","lat":40.4352777,"lng":-3.6917892,"name":"Restaurante El Yate","photo_url":"http://www.elyatemadrid.es/sites/all/themes/best_responsive/images/restaurante-el-yate-madrid-bebidas-premium-cocktails-cervezas-vinos.jpg","place_id":"ChIJC75GbO0oQg0RzWkIF8Xle4Q","price_level":2,"rating":4.1,"types":null,"user_ratings_total":1295}]